stop_id,stop_code,platform_code,stop_name,stop_desc,stop_lat,stop_lon,zone_id,stop_url,location_type,parent_station,stop_timezone,position,direction,wheelchair_boarding,tts_stop_name
2326141,,,Peachtree Senior Living Apartments,,32.699483229448,-96.632845282209,,,0,,America/Chicago,,,0,
2326142,,,Seagoville Rd @ Peachtree Rd,,32.7050392068963,-96.6310710286369,,,0,,America/Chicago,,,0,
2326143,,,Seagoville Rd @ Peachtree Rd,,32.70483574789068,-96.63104388283966,,,0,,America/Chicago,,,0,
2382395,,,Balch Springs City Hall,,32.706829,-96.58212,,,0,,America/Chicago,,,1,
2382396,,,I 20 Frontage Rd.,,32.704797,-96.588939,,,0,,America/Chicago,,,1,
2382397,,,Twin Oaks Dr. & Seagoville Rd.,,32.70436,-96.605395,,,0,,America/Chicago,,,1,
2382398,,,Spring Oaks Shopping Ctr,,32.712603,-96.605354,,,0,,America/Chicago,,,0,
2382400,,,Seagoville Rd. @ Shepherd Ln.,,32.704915,-96.615143,,,0,,America/Chicago,,,1,
2382401,,,Seagoville Rd. & Ambassador Way,,32.704882,-96.622227,,,0,,America/Chicago,,,1,
2382403,,,Peachtree Rd. & Long St.,,32.711783,-96.63119,,,0,,America/Chicago,,,1,
2382404,,,Peachtree Park Shopping Center,,32.720048,-96.631166,,,0,,America/Chicago,,,1,
2382405,,,Peachtree Rd. & Erich Dr.,,32.726312,-96.631149,,,0,,America/Chicago,,,1,
2382406,,,Bells Better Burgers,,32.733617,-96.631171,,,0,,America/Chicago,,,1,
2382407,,,Beverage Corner,,32.733922,-96.623043,,,0,,America/Chicago,,,1,
2382408,,,Lake June Rd. & Balch Springs Dr.,,32.735278,-96.610707,,,0,,America/Chicago,,,1,
2382409,,,5 Points Grocery,,32.726202,-96.601904,,,0,,America/Chicago,,,1,
2382410,,,S. Beltline Rd. & Spring Oak Dr.,,32.717503,-96.591857,,,0,,America/Chicago,,,1,
2382411,,,S. Beltline Rd. & Lasater Rd.,,32.712098,-96.58546,,,0,,America/Chicago,,,1,
2387291,,,Pioneer Rd @ Elam Rd,,32.719407,-96.606451,,,0,,America/Chicago,,,1,
2387292,,,Elam Rd @ Loyd Dr,,32.71944,-96.611208,,,0,,America/Chicago,,,2,
2428301,,,Terrell Depot,,32.735244,-96.275991,,http://www.startransit.org/fixed-routes/terrell-fixed-routes/,0,,America/Chicago,,,1,
2428302,,,Pleasant Hill Baptist Church,,32.729943,-96.268478,,http://www.startransit.org/fixed-routes/terrell-fixed-routes/,0,,America/Chicago,,,1,
2428303,,,Dellis St. @ High St.,,32.737111,-96.266628,,http://www.startransit.org/fixed-routes/terrell-fixed-routes/,0,,America/Chicago,,,1,
2428304,,,Baylor Health Center,,32.737146,-96.274408,,http://www.startransit.org/fixed-routes/terrell-fixed-routes/,0,,America/Chicago,,,1,
2428305,,,Terrell Senior Citizen Center,,32.737157,-96.27614,,http://www.startransit.org/fixed-routes/terrell-fixed-routes/,0,,America/Chicago,,,1,
2428306,,,Riter Hulsey Public Library,,32.738875,-96.280896,,http://www.startransit.org/fixed-routes/terrell-fixed-routes/,0,,America/Chicago,,,1,
2428307,,,Town West Plaza,,32.73792,-96.299634,,http://www.startransit.org/fixed-routes/terrell-fixed-routes/,0,,America/Chicago,,,1,
2428308,,,Wal-Mart (Terrell),,32.739043,-96.305981,,http://www.startransit.org/fixed-routes/terrell-fixed-routes/,0,,America/Chicago,,,1,
2428309,,,Southwestern Christian College,,32.735978,-96.284786,,http://www.startransit.org/fixed-routes/terrell-fixed-routes/,0,,America/Chicago,,,1,
2428342,,,Dollar General (Terrell),,32.73151,-96.27614,,http://www.startransit.org/fixed-routes/terrell-fixed-routes/,0,,America/Chicago,,,1,
2428343,,,Terrell Post Office,,32.71946,-96.27967,,http://www.startransit.org/fixed-routes/terrell-fixed-routes/,0,,America/Chicago,,,1,
2428354,,,S. Rockwall Ave. & Hamilton Dr.,,32.71666,-96.28591,,http://www.startransit.org/fixed-routes/terrell-fixed-routes/weekday-schedulemap/,0,,America/Chicago,,,1,
2428355,,,Terrell Senior Terraces 1,,32.712601,-96.285982,,http://www.startransit.org/fixed-routes/terrell-fixed-routes/weekday-schedulemap/,0,,America/Chicago,,,1,
2428356,,,Hwy 34 @ Mira Pl.,,32.70454,-96.27686,,http://www.startransit.org/fixed-routes/terrell-fixed-routes/weekday-schedulemap/,0,,America/Chicago,,,1,
2428358,,,Soulman's Bar-B-Que,,32.723698,-96.316069,,http://www.startransit.org/fixed-routes/terrell-fixed-routes/weekday-schedulemap/,0,,America/Chicago,,,1,
2428359,,,Terrell Crossing,,32.737547,-96.312555,,http://www.startransit.org/fixed-routes/terrell-fixed-routes/weekday-schedulemap/,0,,America/Chicago,,,1,
2428360,,,Metro Dr. & Apache Tr.,,32.72831688601,-96.323634549364,,http://www.startransit.org/fixed-routes/terrell-fixed-routes/weekday-schedulemap/,0,,America/Chicago,,,1,
2428361,,,TigerMart,,32.723466509647,-96.317666234763,,http://www.startransit.org/fixed-routes/terrell-fixed-routes/weekday-schedulemap/,0,,America/Chicago,,,1,
2428362,,,Crossroads of Terrell,,32.71774,-96.32503,,http://www.startransit.org/fixed-routes/terrell-fixed-routes/weekday-schedulemap/,0,,America/Chicago,,,1,
2428363,,,Tanger Outlet Mall,,32.703144488535,-96.284883098667,,http://www.startransit.org/fixed-routes/terrell-fixed-routes/weekday-schedulemap/,0,,America/Chicago,,,1,
2428364,,,Brownstone Apartments,,32.72163,-96.27868,,http://www.startransit.org/fixed-routes/terrell-fixed-routes/weekday-schedulemap/,0,,America/Chicago,,,1,
2428365,,,Trinity Valley Community College - Terrell Campus,,32.691714,-96.249843,,http://www.startransit.org/fixed-routes/terrell-fixed-routes/weekday-schedulemap/,0,,America/Chicago,,,1,
2428366,,,Autozone/Maines,,32.705562,-96.252898,,http://www.startransit.org/fixed-routes/terrell-fixed-routes/weekday-schedulemap/,0,,America/Chicago,,,1,
2428367,,,Airport Rd. and Skyline Dr.,,32.713482725183,-96.262279981654,,http://www.startransit.org/fixed-routes/terrell-fixed-routes/weekday-schedulemap/,0,,America/Chicago,,,1,
2428368,,,Old Castle BuildingEnvelope,,32.721509,-96.271541,,http://www.startransit.org/fixed-routes/terrell-fixed-routes/weekday-schedulemap/,0,,America/Chicago,,,1,
2428369,,,Lakes Regional MHMR,,32.72502943177,-96.276058709073,,http://www.startransit.org/fixed-routes/terrell-fixed-routes/weekday-schedulemap/,0,,America/Chicago,,,1,
2430336,,,FedEx Home Delivery,,32.656702,-96.706983,,http://www.startransit.org/hutchins-shuttle/,0,,America/Chicago,,,1,
2430337,,,Hutchins Senior Center,,32.647976,-96.716901,,http://www.startransit.org/hutchins-shuttle/,0,,America/Chicago,,,1,
2430338,,,York Dr. @ Methodist Charlton Medical Ctr.,,32.645489117607,-96.878600342998,,http://www.startransit.org,0,,America/Chicago,,,1,
2430339,,,Wal-Mart (Cedar Hill),,32.599422,-96.946236,,http://www.startransit.org/hutchins-shuttle/,0,,America/Chicago,,,0,
2430342,,,Wal-Mart (DeSoto),,32.590841,-96.880197,,http://www.startransit.org/hutchins-shuttle/,0,,America/Chicago,,,1,
2430343,,,Wal-Mart (Lancaster),,32.591137,-96.821108,,http://www.startransit.org/hutchins-shuttle/,0,,America/Chicago,,,2,
2430344,,,DART UNT Dallas Station,,32.653643,-96.802337,,http://www.startransit.org/hutchins-shuttle/,0,,America/Chicago,,,1,
2430345,,,Dollar General (Lancaster),,32.618708,-96.807161,,http://www.startransit.org/hutchins-shuttle/,0,,America/Chicago,,,1,
2430346,,,Cracker Barrel (DeSoto),,32.617459,-96.824069,,http://www.startransit.org/hutchins-shuttle/,0,,America/Chicago,,,1,
2430347,,,The Crossing Shopping Center,,32.606732332527,-96.823960516931,,http://www.startransit.org,0,,America/Chicago,,,1,
2430348,,,Crescent Medical Center,,32.604067,-96.812548,,http://www.startransit.org/hutchins-shuttle/,0,,America/Chicago,,,1,
2430349,,,Fiesta Mart (Lancaster),,32.604107,-96.787217,,http://www.startransit.org/hutchins-shuttle/,0,,America/Chicago,,,1,
2430350,,,Cedar Valley College,Near building G.,32.625611,-96.765934,,http://www.startransit.org/hutchins-shuttle/,0,,America/Chicago,,,1,
2441010,,,Amazon Fulfillment Center,,32.661933370955,-96.734333979167,,http://www.startransit.org/hutchins-shuttle/,0,,America/Chicago,,,0,
2441012,,,Hutchins Gateway Apartments - North,,32.650402,-96.723656,,http://www.startransit.org/hutchins-shuttle/,0,,America/Chicago,,,1,
2452903,,,Riverbend Apts,,32.616525,-96.85396,,,0,,America/Chicago,,,1,
2452904,,,The Corner Apts.,,32.618445,-96.852695,,http://www.startransit.org/,0,,America/Chicago,,,1,
2452905,,,Windsong Place Apts,,32.61863,-96.83054,,,0,,America/Chicago,,,1,
2452906,,,Pecan Crossing Apts,,32.604397,-96.828454,,http://www.startransit.org/,0,,America/Chicago,,,1,
2452907,,,Townsend Square Shopping Ctr.,,32.604338,-96.842039,,http://www.startransit.org/,0,,America/Chicago,,,1,
2452908,,,DeSoto Town Hall/Civic Ctr.,,32.605618,-96.856957,,http://www.startransit.org/,0,,America/Chicago,,,1,
2452909,,,Creekwood Apts.,,32.618656,-96.861301,,http://www.startransit.org/,0,,America/Chicago,,,1,
2452910,,,W. Wintergreen Rd. @ Franklin Park,,32.618681,-96.863942,,http://www.startransit.org/,0,,America/Chicago,,,1,
2452911,,,Scotland Dr. @ Bolton Boone Dr.,,32.642372,-96.879645,,http://www.startransit.org/,0,,America/Chicago,,,1,
2452912,,,Kohl's eFulfillment Center,,32.626358,-96.82589,,http://www.startransit.org/,0,,America/Chicago,,,1,
2452913,,,Wal-Mart Distribution (DeSoto),,32.624254,-96.837932,,http://www.startransit.org/,0,,America/Chicago,,,1,
2452914,,,Solar Turbines Inc.,,32.627279,-96.853729,,http://www.startransit.org/,0,,America/Chicago,,,1,
2455651,,,Genesis Center,,32.607530266462206,-96.27784687860576,,http://www.startransit.org/the-link-route-802/,0,,America/Chicago,,,1,
2501530,,,Family Dollar (West) - Hutchins,,32.647688,-96.711806,,,0,,America/Chicago,,,1,
2502232,,,Family Dollar (East) - Hutchins,,32.64759,-96.711744,,http://www.startransit.org/hutchins-shuttle/,0,,America/Chicago,,,1,
2502233,,,Hutchins Gateway Apts (South),,32.650348,-96.723766,,http://www.startransit.org/hutchins-shuttle/,0,,America/Chicago,,,0,
2502553,75160,,Airport Rd. @ S. Virginia St.,,32.725663,-96.276888,,https://www.startransit.org/fixed-routes/terrell-fixed-routes/,0,,America/Chicago,,,1,
2502554,,,Holiday Inn Express (Terrell),,32.7001791353099,-96.2779673217902,,https://www.startransit.org/fixed-routes/terrell-fixed-routes/,0,,America/Chicago,,,1,
2502555,75160,,Mattress Zone,,32.7378436868766,-96.2977438871311,,https://www.startransit.org/fixed-routes/terrell-fixed-routes/,0,,America/Chicago,,,1,
2502556,,,Virginia Anne Apts.,,32.7524723919094,-96.3006457686424,,https://www.startransit.org/fixed-routes/terrell-fixed-routes/,0,,America/Chicago,,,1,
2502557,75160,,Country Manor Club Apts,,32.7482007448953,-96.2963626385499,,https://www.startransit.org/fixed-routes/terrell-fixed-routes/,0,,America/Chicago,,,1,
2502558,75160,,TISD ExCEL Center,,32.7469850385088,-96.294983625412,,https://www.startransit.org/fixed-routes/terrell-fixed-routes/,0,,America/Chicago,,,1,
2502559,75160,,Bridge St. @ Hwy. 80,,32.737396,-96.284488,,https://www.startransit.org/fixed-routes/terrell-fixed-routes/,0,,America/Chicago,,,0,
2502560,75160,,E. High St. @ Delphine St.,,32.737855,-96.273819,,https://www.startransit.org/fixed-routes/terrell-fixed-routes/,0,,America/Chicago,,,0,
2512572,,,Peachtree Rd @ Slater Dr,,32.74444700569086,-96.63117513563185,,http://www.startransit.org,0,,America/Chicago,,,1,
2512574,,,Hickory Tree @ W Bruton Rd,,32.74855540653576,-96.62332834368857,,https://www.startransit.org/,0,,America/Chicago,,,1,
2512575,,,Hickory Tree @ Asher Ln,,32.74129887752477,-96.62265594133981,,http://www.startransit.org,0,,America/Chicago,,,1,
2512576,,,Hickory Tree @ Lake June Rd,,32.7348765211313,-96.6226817983497,,http://www.startransit.org,0,,America/Chicago,,,1,
2512577,,,Food Pantry/Senior Center,,32.729026,-96.610801,,http://www.startransit.org,0,,America/Chicago,,,1,
2561411,,,"E H Hanby Stadium, Mesquite, TX, USA",,32.7657540972602,-96.5906795446568,,http://www.STARtransit.org,0,,America/Chicago,,,1,
2561422,,,"Lawnview Station, Dallas, TX, USA",,32.7654316102281,-96.719968196137,,http://www.STARtransit.org,0,,America/Chicago,,,1,
2629067,,,FedEx Cedardale Rd.,,32.643853,-96.758899,,https://www.startransit.org/,0,,America/Chicago,,,1,
831913,,,Wal-Mart (Lake June),,32.7338434,-96.6149664,,,0,,America/Chicago,,,0,
831914,,,Hickory Tree South of Lake June,,32.7331222,-96.6226609,,,0,,America/Chicago,,,0,
831916,,,Quail Drive at Glenshire Drive,,32.7246621,-96.6162707,,,0,,America/Chicago,,,0,
831917,,,Glenshire Drive at Home Depot entrance,,32.7207825,-96.6170302,,,0,,America/Chicago,,,0,
831918,,,Shepherd Lane at Elam Road,,32.7190626,-96.6141433,,,0,,America/Chicago,,,0,
831920,,,Peachtree Senior Living Apartments,,32.699569,-96.6328426,,,0,,America/Chicago,,,0,
831921,,,Ambassador Apartments,,32.7092837,-96.6198773,,,0,,America/Chicago,,,0,
831922,,,DART - Buckner Station,,32.7185935,-96.685018,,,0,,America/Chicago,,,0,
831923,,,Hickory Tree South of Lake June,,32.7331274,-96.6225275,,,0,,America/Chicago,,,0,
831924,,,Glenshire Drive at Home Depot entrance,,32.7205146,-96.6171665,,,0,,America/Chicago,,,0,
831925,,,Shepherd Lane at Elam Road,,32.7190645,-96.6140213,,,0,,America/Chicago,,,0,
831926,,,Balch Springs Recreation Center,,32.7110532,-96.6140379,,,0,,America/Chicago,,,0,
831927,,,Ambassador Apartments,,32.7092848,-96.6197511,,,0,,America/Chicago,,,0,
831928,,,Quail Drive at Glenshire Drive,,32.7247487,-96.6163558,,,0,,America/Chicago,,,0,
831929,,,David's Supermarket (E),,32.5887925,-96.3041907,,,0,,America/Chicago,,,0,
831930,,,Kaufman Christian Help Center (E),,32.5911476,-96.2967099,,,0,,America/Chicago,,,1,
831931,,,E. 1st North at Alton St. (E),,32.59186719,-96.30176456,,,0,,America/Chicago,,,0,
831932,,,Washington at E. Hickory Street (E),,32.5911848,-96.3091415,,,0,,America/Chicago,,,0,
831933,,,Texas Health Presbyterian Hospital (W),,32.5918915,-96.319046,,,0,,America/Chicago,,,0,
831934,,,W. Grove at Shannon (W),,32.5899099,-96.316277,,,0,,America/Chicago,,,0,
831935,,,Kaufman Square,,32.58897246,-96.30986875,,,0,,America/Chicago,,,0,
831936,,,Kaufman County Library,,32.564837,-96.316797,,,0,,America/Chicago,,,0,
831937,,,Washington at Cates,,32.5699745,-96.3146487,,,0,,America/Chicago,,,0,
831938,,,Kings Fort Pkwy at Washington,,32.5717013,-96.3114442,,,0,,America/Chicago,,,0,
831939,,,Wal-Mart,,32.5704405,-96.3079774,,,0,,America/Chicago,,,0,
831940,,,Washington Square / Cash Store,,32.5759199,-96.3090293,,,0,,America/Chicago,,,0,
831941,,,Washington at 7th (Northbound),,32.5802589,-96.3087014,,,0,,America/Chicago,,,0,
831942,,,E. 7th St. and S. Dallas Street,,32.5802485,-96.3066542,,,0,,America/Chicago,,,0,
831943,,,E. 4th St. and Wilson,,32.5823022,-96.3057301,,,0,,America/Chicago,,,0,
831944,,,Washington at Chestnut,,32.5875752,-96.3088824,,,0,,America/Chicago,,,0,
831945,,,Hickory Tree at Municipal Center,,32.7268801,-96.6227172,,,0,,America/Chicago,,,0,
831946,,,Hickory Tree at Municipal Center,,32.727158383584786,-96.62252274620664,,,0,,America/Chicago,,,0,
835839,,,Villas of Seagoville,,32.6505962,-96.5290748,,,0,,America/Chicago,,,0,
835841,,,Wal-Mart/Bealls,,32.6503444,-96.5355992,,,0,,America/Chicago,,,0,
835842,,,Seagoville City Hall/Library,,32.6487534,-96.5407383,,,0,,America/Chicago,,,0,
835843,,,US-175 Frontage Rd @ Creekstone Ct,,32.6531131,-96.5515342,,,0,,America/Chicago,,,0,
835844,,,Cedar Point Apartments,,32.658237,-96.5643552,,,0,,America/Chicago,,,0,
835845,,,Kimberly at Creekside,,32.66129,-96.5712109,,,0,,America/Chicago,,,0,
835846,,,Creekside of Seagoville,,32.6639568,-96.5761609,,,0,,America/Chicago,,,0,
835847,,,N Hwy 175 @ W. Simonds Rd,,32.660384338717,-96.571579841215,,,0,,America/Chicago,,,0,
835848,,,Seagoville Shopping Ctr.,,32.6493756,-96.5475659,,,0,,America/Chicago,,,0,
835849,,,Mathis St @ Howard St.,,32.6471127,-96.5508637,,,0,,America/Chicago,,,0,
835850,,,Seagoville Senior Center,,32.6473498,-96.5426615,,,0,,America/Chicago,,,0,
